{
  "storages": [
  {
    "id": 1,
    "name": "Depósito 1",
    "lat": -27.5944418,
    "lon": -48.52081496678028,
    "address": {
      "zip": "88036-003",
      "street": "Rua Lauro Linhares",
      "numberStreet": "700",
      "district": "Trindade",
      "city": "Florianópolis",
      "uf": "SC"
    }
  },
  {
    "id": 2,
    "name": "Depósito 2",
    "lat": -27.5903218,
    "lon": -48.5218346,
    "address": {
      "zip": "88036-280",
      "street": "Rua Lauro Linhares",
      "numberStreet": "600",
      "district": "Trindade",
      "city": "Florianópolis",
      "uf": "SC"
    }
  },
  {
    "id": 3,
    "name": "Depósito 3",
    "lat": -27.586785,
    "lon": -48.524593,
    "address": {
      "zip": "88036-001",
      "street": "Rua Lauro Linhares",
      "numberStreet": "20",
      "district": "Trindade",
      "city": "Florianópolis",
      "uf": "SC"
    }
  },
  {
    "id": 4,
    "name": "Depósito 4",
    "lat": -27.5925865,
    "lon": -48.5214769,
    "address": {
      "zip": "88036-650",
      "street": "Rua Lauro Linhares",
      "numberStreet": "1000",
      "district": "Trindade",
      "city": "Florianópolis",
      "uf": "SC"
    }
  }
  ]
}